[{"Prop_ID":"X045","Name":"St. Mary's Recreation Center Pool","Location":"St. Ann's Avenue and E. 145th Street","Phone":"(718) 402-5157","Pools_indoor_Type":"Intermediate","Setting":"Indoor","Size":"72' x 39' x 9'","Accessible":"Y","lat":"40.8114","lon":"-73.9141","rec_center_id":"X045"},{"Prop_ID":"B270","Name":"Brownsville Recreation Center Pool","Location":"Linden and Mother Gaston Blvds. and Christopher Avenue","Phone":"(718) 485-4633","Pools_indoor_Type":"Intermediate","Setting":"Indoor","Size":"75' x 30' x 8'","Accessible":"Y","lat":"40.6563","lon":"-73.9027","rec_center_id":"B270"},{"Prop_ID":"B085","Name":"Metropolitan Recreation Center Pool","Location":"Bedford and Metropolitan Avenues","Phone":"(718) 599-5707","Pools_indoor_Type":"Intermediate","Setting":"Indoor","Size":"75'x30'","Accessible":"Y","lat":"40.715","lon":"-73.9603","rec_center_id":"B085"},{"Prop_ID":"B245","Name":"St. John's Recreation Center Pool","Location":"Prospect Place, between Troy and Schenectady Avenues","Phone":"(718) 771-2787","Pools_indoor_Type":"Intermediate","Setting":"Indoor","Size":"75' x 42' x 9'","Accessible":"Y","lat":"40.674","lon":"-73.9349","rec_center_id":"B245"},{"Prop_ID":"M164","Name":"Asser Levy Recreation Center Pool","Location":"Asser Levy Place and E. 23rd Street","Phone":"(212) 447-2020","Pools_indoor_Type":"Intermediate","Setting":"Indoor","Size":"66' x 26' x 8'","Accessible":"Y","lat":"40.736","lon":"-73.9753","rec_center_id":"M164"},{"Prop_ID":"M260","Name":"Chelsea Recreation Center Pool","Location":"West 25th St. between 9th &amp; 10th Aves","Phone":"(212) 255-3705","Pools_indoor_Type":"Intermediate","Setting":"Indoor","Size":"75' x 43' x 10'","Accessible":"Y","lat":"40.7483","lon":"-74.0022","rec_center_id":"M260"},{"Prop_ID":"M103","Name":"Tony Dapolito Recreation Center Pool","Location":"Clarkson St. and Seventh Ave. South","Phone":"(646) 300-2271","Pools_indoor_Type":"Intermediate","Setting":"Indoor","Size":"70' x 21' x 8'","Accessible":"Y","lat":"40.7297","lon":"-74.0055","rec_center_id":"M103"},{"Prop_ID":"M063","Name":"Gertrude Ederle  Recreation Center Pool","Location":"232 West 60th Street","Phone":"(212) 397-3159","Pools_indoor_Type":"Intermediate","Setting":"Indoor","Size":"60' x 35' x 8'","Accessible":"Y","lat":"40.7715","lon":"-73.9888","rec_center_id":"M063"},{"Prop_ID":"M131","Name":"Hansborough Recreation Center Pool","Location":"134th St. between Fifth &amp; Lenox Aves.","Phone":"(212) 234-9603","Pools_indoor_Type":"Intermediate","Setting":"Indoor","Size":"75' x 35' x 9'","Accessible":"Y","lat":"40.8129","lon":"-73.9394","rec_center_id":"M131"},{"Prop_ID":"M130","Name":"Recreation Center 54 Pool","Location":"E. 54th St. bet. First and Second Aves.","Phone":"(212) 754-5411","Pools_indoor_Type":"Intermediate","Setting":"Indoor","Size":"54' x 50' x 12'","Accessible":"Y","lat":"40.7565","lon":"-73.9651","rec_center_id":"M130"},{"Prop_ID":"Q448","Name":"Roy Wilkins  Recreation Center Pool","Location":"177th Street and Baisley Boulevard","Phone":"(718) 276-4630","Pools_indoor_Type":"Intermediate","Setting":"Indoor","Size":"75' x 30' x 9'","Accessible":"Y","lat":"40.6873","lon":"-73.7695","rec_center_id":"Q448"},{"Prop_ID":"Q099","Name":"Flushing Meadows Corona Park Pool & Rink","Location":"Avery Avenue and 131 Street","Phone":"(718) 271-7572","Pools_indoor_Type":"Olympic","Setting":"Indoor","Size":"164' x 82' x 7.5'","Accessible":"Y","lat":"40.7518","lon":"-73.8377","rec_center_id":"Q099"},{"Prop_ID":"Q099","Name":"Flushing Meadows Corona Park Pool & Rink","Location":"Avery Avenue and 131 Street","Phone":"(718) 271-7572","Pools_indoor_Type":"Diving","Setting":"Indoor","Size":"164' x 82' x 12.75","Accessible":"Y","lat":"40.7516","lon":"-73.8373","rec_center_id":"Q099"}]
